{
  "_comment": "Parks Canada frontcountry campgrounds in BC national parks. Hand-curated because there's no authoritative points dataset exposed by open.canada.ca or the Parks Canada reservation system (Azure WAF blocks scripted access). Coordinates verified via OSM Nominatim where possible; rough park-center coords used for the handful that aren't individually mapped. Data accuracy should be audited before trusting for navigation.",
  "_source": "parks.canada.ca/pn-np/bc/<slug>/activ/camping (scraped 2026-05-11)",
  "_license": "Open Government Licence - Canada",
  "campgrounds": [
    {
      "name": "Kicking Horse Campground",
      "lat": 51.4242, "lon": -116.4321,
      "park": "Yoho National Park",
      "park_url": "https://parks.canada.ca/pn-np/bc/yoho",
      "reservable": true,
      "season": "mid-May to early October"
    },
    {
      "name": "Monarch Campground",
      "lat": 51.4210, "lon": -116.4445,
      "park": "Yoho National Park",
      "park_url": "https://parks.canada.ca/pn-np/bc/yoho",
      "reservable": false,
      "season": "mid-May to early October"
    },
    {
      "name": "Hoodoo Creek Campground",
      "lat": 51.2230, "lon": -116.5713,
      "park": "Yoho National Park",
      "park_url": "https://parks.canada.ca/pn-np/bc/yoho",
      "reservable": false,
      "season": "late June to early September"
    },
    {
      "name": "Chancellor Peak Campground",
      "lat": 51.1916, "lon": -116.5820,
      "park": "Yoho National Park",
      "park_url": "https://parks.canada.ca/pn-np/bc/yoho",
      "reservable": false,
      "season": "mid-May to early October"
    },
    {
      "name": "Takakkaw Falls Walk-in Campground",
      "lat": 51.4969, "lon": -116.4746,
      "park": "Yoho National Park",
      "park_url": "https://parks.canada.ca/pn-np/bc/yoho",
      "reservable": false,
      "season": "late June to early October"
    },
    {
      "name": "Redstreak Campground",
      "lat": 50.6273, "lon": -116.0579,
      "park": "Kootenay National Park",
      "park_url": "https://parks.canada.ca/pn-np/bc/kootenay",
      "reservable": true,
      "season": "early May to early October"
    },
    {
      "name": "McLeod Meadows Campground",
      "lat": 50.7675, "lon": -115.9414,
      "park": "Kootenay National Park",
      "park_url": "https://parks.canada.ca/pn-np/bc/kootenay",
      "reservable": true,
      "season": "late May to mid-September"
    },
    {
      "name": "Marble Canyon Campground",
      "lat": 51.1859, "lon": -116.1182,
      "park": "Kootenay National Park",
      "park_url": "https://parks.canada.ca/pn-np/bc/kootenay",
      "reservable": false,
      "season": "late June to early September"
    },
    {
      "name": "Illecillewaet Campground",
      "lat": 51.2651, "lon": -117.4950,
      "park": "Glacier National Park",
      "park_url": "https://parks.canada.ca/pn-np/bc/glacier",
      "reservable": false,
      "season": "late June to late September"
    },
    {
      "name": "Loop Brook Campground",
      "lat": 51.2573, "lon": -117.5383,
      "park": "Glacier National Park",
      "park_url": "https://parks.canada.ca/pn-np/bc/glacier",
      "reservable": false,
      "season": "late June to late September"
    },
    {
      "name": "Mount Sir Donald Campground",
      "lat": 51.2700, "lon": -117.5150,
      "park": "Glacier National Park",
      "park_url": "https://parks.canada.ca/pn-np/bc/glacier",
      "reservable": false,
      "season": "late June to late September"
    },
    {
      "name": "Snowforest Campground",
      "lat": 51.0020, "lon": -118.1450,
      "park": "Mount Revelstoke National Park",
      "park_url": "https://parks.canada.ca/pn-np/bc/revelstoke",
      "reservable": true,
      "season": "mid-June to early September"
    },
    {
      "name": "Green Point Campground",
      "lat": 49.0571, "lon": -125.7232,
      "park": "Pacific Rim National Park Reserve",
      "park_url": "https://parks.canada.ca/pn-np/bc/pacificrim",
      "reservable": true,
      "season": "mid-March to mid-October"
    },
    {
      "name": "Smonećten (McDonald) Campground",
      "lat": 48.6738, "lon": -123.4264,
      "park": "Gulf Islands National Park Reserve",
      "park_url": "https://parks.canada.ca/pn-np/bc/gulf",
      "reservable": true,
      "season": "mid-May to mid-October"
    },
    {
      "name": "Prior Centennial Campground",
      "lat": 48.7666, "lon": -123.2744,
      "park": "Gulf Islands National Park Reserve",
      "park_url": "https://parks.canada.ca/pn-np/bc/gulf",
      "reservable": true,
      "season": "mid-May to mid-October"
    },
    {
      "name": "Sidney Spit Campground",
      "lat": 48.6450, "lon": -123.3450,
      "park": "Gulf Islands National Park Reserve",
      "park_url": "https://parks.canada.ca/pn-np/bc/gulf",
      "reservable": true,
      "season": "mid-May to mid-September (boat/ferry access)"
    },
    {
      "name": "Beaumont Marine Provincial Park Campground",
      "lat": 48.7550, "lon": -123.1800,
      "park": "Gulf Islands National Park Reserve",
      "park_url": "https://parks.canada.ca/pn-np/bc/gulf",
      "reservable": false,
      "season": "year-round (boat access, South Pender Island)"
    },
    {
      "name": "Prevost Island (James Bay)",
      "lat": 48.8230, "lon": -123.4100,
      "park": "Gulf Islands National Park Reserve",
      "park_url": "https://parks.canada.ca/pn-np/bc/gulf",
      "reservable": false,
      "season": "year-round (boat access)"
    },
    {
      "name": "Portland Island (Princess Bay)",
      "lat": 48.7300, "lon": -123.3650,
      "park": "Gulf Islands National Park Reserve",
      "park_url": "https://parks.canada.ca/pn-np/bc/gulf",
      "reservable": false,
      "season": "year-round (boat access)"
    },
    {
      "name": "D'Arcy Island",
      "lat": 48.5700, "lon": -123.2800,
      "park": "Gulf Islands National Park Reserve",
      "park_url": "https://parks.canada.ca/pn-np/bc/gulf",
      "reservable": false,
      "season": "year-round (boat access)"
    }
  ]
}
